[
  {
    "name": "Sizeable house",
    "bedroom_count": 2,
    "latitude": 51.501,
    "longitude": -0.142
  },
  {
    "name": "Trendy flat",
    "bedroom_count": 2,
    "latitude": 51.523778,
    "longitude": -0.2055
  },
  {
    "name": "Flat with stunning view",
    "bedroom_count": 2,
    "latitude": 51.504444,
    "longitude": -0.086667
  },
  {
    "name": "Unique flat",
    "bedroom_count": 1,
    "latitude": 51.538333,
    "longitude": -0.013333
  },
  {
    "name": "Isolated house",
    "bedroom_count": 1,
    "latitude": 50.066944,
    "longitude": -5.746944
  }
]